{"Koncert Zvonka Bogdana":{"name":"Koncert Zvonka Bogdana", 
"type": "CONCERT", "capacity": 100, 
"dateAndTime": "2020-06-09 20:00:00",
 "regularPrice":2000, 
 "location" :{"latitude":"12312312312", "longitude":"123123123", 
  "address":{"streetName":"Dom Kulture","streetNumber":"5","city":"Beograd", "postalCode":"99999"}
  },
  "posterImagePath":"zvonko.jpg",
  "rating": "5",
  "status":"ACTIVE"}
,
"Exit Festival":{"name":"Exit Festival", "type": "FESTIVAL", "capacity": 200, "dateAndTime": "2020-02-20 20:00:00", "regularPrice": 1000, "location" :{"latitude":"12312212312", "longitude":"1223123", "address":{"streetName":"Tvrdjava","streetNumber":"99","city":"Beograd", "postalCode":"3322323"}},
  "posterImagePath":"Exit_Official_Logo.png",
  "rating": "5",
  "status":"ACTIVE"},
 "Exit Festival2":{"name":"Exit Festival2", "type": "FESTIVAL", "capacity": 300, "dateAndTime": "2021-07-24 20:00:00", "regularPrice": 2000, "location" :{"latitude":"12312212312", "longitude":"1223123", "address":{"streetName":"Tvrdjava","streetNumber":"99","city":"Novi Sad", "postalCode":"3322323"}},
  "posterImagePath":"mob_EXIT-2-0.jpg",
  "rating": "5",
  "status":"INACTIVE"},
"Exit Festival141":{"name":"Exit Festival141", "type": "FESTIVAL", "capacity": 300, "dateAndTime": "2020-07-24 20:00:00", "regularPrice": 2000, "location" :{"latitude":"12312212312", "longitude":"1223123", "address":{"streetName":"Tvrdjava","streetNumber":"99","city":"Novi Sad", "postalCode":"3322323"}},
  "posterImagePath":"Exit_Official_Logo.png",
  "rating": "2",
  "status":"ACTIVE"},
 "Exit Festival332":{"name":"Exit Festival332", "type": "FESTIVAL", "capacity": 300, "dateAndTime": "2021-07-24 20:00:00", "regularPrice": 2000, "location" :{"latitude":"12312212312", "longitude":"1223123", "address":{"streetName":"Tvrdjava","streetNumber":"99","city":"Novi Sad", "postalCode":"3322323"}},
  "posterImagePath":"Exit_Official_Logo.png",
  "rating": "1",
  "status":"INACTIVE"}
  ,
"Opera":{"name":"Opera", "type": "THEATRE", "capacity": 200, "dateAndTime": "2021-01-01 20:00:00", "regularPrice": 2000, "location" :{"latitude":"12312212312", "longitude":"1223123", "address":{"streetName":"Bulevar","streetNumber":"99","city":"Prague", "postalCode":"3322323"}},
  "posterImagePath":"2f.jpg",
  "rating": "5",
  "status":"ACTIVE"},
 "Manifestacija":{"name":"Manifestacija", "type": "FESTIVAL", "capacity": 300, "dateAndTime": "2021-07-24 20:00:00", "regularPrice": 2000, "location" :{"latitude":"12312212312", "longitude":"1223123", "address":{"streetName":"Bulevar","streetNumber":"99","city":"Beograd", "postalCode":"3322323"}},
  "posterImagePath":"Exit_Official_Logo.png",
  "rating": "5",
  "status":"INACTIVE"}
  ,
"Muzejska Poseta":{"name":"Muzejska Poseta", "type": "OTHER", "capacity": 30, "dateAndTime": "2020-05-12 20:00:00", "regularPrice": 500, "location" :{"latitude":"12312212312", "longitude":"1223123", "address":{"streetName":"Nikole Tesle","streetNumber":"22","city":"Sombor", "postalCode":"3322323"}},
  "posterImagePath":"BKQCP.jpg",
  "rating": "5",
  "status":"ACTIVE"},
 "Koncert Zdravka Colica":{"name":"Koncert Zdravka Colica", "type": "CONCERT", "capacity": 30000, "dateAndTime": "2021-21-21 20:00:00", "regularPrice": 5000, "location" :{"latitude":"12312212312", "longitude":"1223123", "address":{"streetName":"Tvrdjava","streetNumber":"99","city":"Novi Sad", "postalCode":"3322323"}},
  "posterImagePath":"zdravkoc.jpg",
  "rating": "5",
  "status":"ACTIVE"}}
  